{
    "Places": [{
            "id": 91536,
            "city_name": "Yekaterinburg",
            "city_arena": "Ekaterinburg Arena",
            "city_founded": 1723,
            "lat": "56.8519",
            "long": "60.6122",
            "city_population": "1.4 million",
            "city_timezone": "GMT+5:00",
            "city_temp": "62.6° F",
            "city_dist_moscow": "1790 km",
            "club": "FC Ural",
            "capacity": "45,000",
            "stadium_built": 1957,
            "stadium_image": "https://s3.ap-south-1.amazonaws.com/tuppleapps/fifa18images/stadiums/1.jpg",
            "video_link": "https://www.youtube.com/watch?v=XqVmknboC-w",
            "city_about": "https://en.wikipedia.org/wiki/Yekaterinburg"
        },
        {
            "id": 88598,
            "city_name": "Kaliningrad",
            "city_arena": "Kaliningrad Stadium",
            "city_founded": 1946,
            "lat": "54.70649",
            "long": "20.51095",
            "city_population": "941,873",
            "city_timezone": "GMT+2:00",
            "city_temp": "71.6° F",
            "city_dist_moscow": "1790 km",
            "club": "FC Baltika Kaliningrad",
            "capacity": "35,212",
            "stadium_built": 2018,
            "stadium_image": "https://s3.ap-south-1.amazonaws.com/tuppleapps/fifa18images/stadiums/2.jpg",
            "video_link": "https://www.youtube.com/watch?v=q7xakF6Sj8Q",
            "city_about": "https://en.wikipedia.org/wiki/Kaliningrad"
        },
        {
            "id": 82606,
            "city_name": "Kazan",
            "city_arena": "Kazan Arena",
            "city_founded": 1005,
            "lat": "55.8210",
            "long": "49.1606",
            "city_population": "1.14 million",
            "city_timezone": "GMT+3:00",
            "city_temp": "63.32° F",
            "city_dist_moscow": "1790 km",
            "club": "FC Rubin Kazan",
            "capacity": "45,000",
            "stadium_built": 2013,
            "stadium_image": "https://s3.ap-south-1.amazonaws.com/tuppleapps/fifa18images/stadiums/3.jpg",
            "video_link": "https://www.youtube.com/watch?v=oUkY34bK2lI",
            "city_about": "https://en.wikipedia.org/wiki/Kazan"
        },
        {
            "id": 90119,
            "city_name": "Moscow",
            "city_arena": "Luzhniki Stadium",
            "city_founded": 1147,
            "lat": "55.7158",
            "long": "37.5537",
            "city_population": "12.22 million",
            "city_timezone": "GMT+3:00",
            "city_temp": "73.4° F",
            "city_dist_moscow": "1790 km",
            "club": "none",
            "capacity": "78,360",
            "stadium_built": 1956,
            "stadium_image": "https://s3.ap-south-1.amazonaws.com/tuppleapps/fifa18images/stadiums/4.jpg",
            "video_link": "https://www.youtube.com/watch?v=NdgNBgT8sQY",
            "city_about": "https://en.wikipedia.org/wiki/Luzhniki_Stadium"
        },
        {
            "id": 76836,
            "city_name": "Moscow",
            "city_arena": "Spartak Stadium",
            "city_founded": 1147,
            "lat": "55.8178",
            "long": "37.4407",
            "city_population": "12.22 million",
            "city_timezone": "GMT+3:00",
            "city_temp": "73.4° F",
            "city_dist_moscow": "1790 km",
            "club": "FC Spartak Moscow",
            "capacity": "42,000",
            "stadium_built": 2014,
            "stadium_image": "https://s3.ap-south-1.amazonaws.com/tuppleapps/fifa18images/stadiums/5.jpg",
            "video_link": "https://www.youtube.com/watch?v=2n8udHNg0Ro",
            "city_about": "https://en.wikipedia.org/wiki/Otkrytiye_Arena"
        },
        {
            "id": 91540,
            "city_name": "Nizhny Novgorod",
            "city_arena": "Nizhny Novgorod Stadium",
            "city_founded": 1221,
            "lat": "56.327530",
            "long": "44.000717",
            "city_population": "1.25 million",
            "city_timezone": "GMT+3:00",
            "city_temp": "69.8° F",
            "city_dist_moscow": "1790 km",
            "club": "none",
            "capacity": "78,360",
            "stadium_built": 1956,
            "stadium_image": "https://s3.ap-south-1.amazonaws.com/tuppleapps/fifa18images/stadiums/6.jpg",
            "video_link": "https://www.youtube.com/watch?v=Tf-tGfAzuVU",
            "city_about": "https://en.wikipedia.org/wiki/Nizhny_Novgorod"
        },
        {
            "id": 91539,
            "city_name": "Rostov-on-Don",
            "city_arena": "Rostov Arena",
            "city_founded": 1749,
            "lat": "47.2099",
            "long": "39.7375",
            "city_population": "1.08 million",
            "city_timezone": "GMT+3:00",
            "city_temp": "75.2° F",
            "city_dist_moscow": "1790 km",
            "club": "FC Rostov",
            "capacity": "45,000",
            "stadium_built": 2017,
            "stadium_image": "https://s3.ap-south-1.amazonaws.com/tuppleapps/fifa18images/stadiums/7.jpg",
            "video_link": "https://www.youtube.com/watch?v=RT7OZyKMks0",
            "city_about": "https://en.wikipedia.org/wiki/Rostov_Arena"
        },
        {
            "id": 90211,
            "city_name": "Saint Petersburg",
            "city_arena": "Saint Petersburg Stadium",
            "city_founded": 1703,
            "lat": "59.93863",
            "long": "30.298115",
            "city_population": "5.3 million",
            "city_timezone": "GMT+3:00",
            "city_temp": "56°F",
            "city_dist_moscow": "1790 km",
            "club": "FC Zenit",
            "capacity": "68,000",
            "stadium_built": 2017,
            "stadium_image": "https://s3.ap-south-1.amazonaws.com/tuppleapps/fifa18images/stadiums/8.jpg",
            "video_link": "https://www.youtube.com/watch?v=N3ISUUO0CSo",
            "city_about": "https://en.wikipedia.org/wiki/Krestovsky_Stadium"
        },
        {
            "id": 91538,
            "city_name": "Samara",
            "city_arena": "Samara Arena",
            "city_founded": 1586,
            "lat": "53.2779",
            "long": "50.2376",
            "city_population": "1.16 million",
            "city_timezone": "GMT+4:00",
            "city_temp": "69.8° F",
            "city_dist_moscow": "1790 km",
            "club": "Krylia Sovetov",
            "capacity": "44,198",
            "stadium_built": 2017,
            "stadium_image": "https://s3.ap-south-1.amazonaws.com/tuppleapps/fifa18images/stadiums/9.jpg",
            "video_link": "https://www.youtube.com/watch?v=KINkoAuUUCo",
            "city_about": "https://en.wikipedia.org/wiki/Cosmos_Arena"
        },
        {
            "id": 91537,
            "city_name": "Saransk",
            "city_arena": "Mordovia Arena",
            "city_founded": 1641,
            "lat": "54.1819",
            "long": "45.2037",
            "city_population": "297,415",
            "city_timezone": "GMT+3:00",
            "city_temp": "71.6° F",
            "city_dist_moscow": "1790 km",
            "club": "FC Mordovia Saransk",
            "capacity": "28,000",
            "stadium_built": 2017,
            "stadium_image": "https://s3.ap-south-1.amazonaws.com/tuppleapps/fifa18images/stadiums/10.jpg",
            "video_link": "https://www.youtube.com/watch?v=vVIYZARbXAs",
            "city_about": "https://en.wikipedia.org/wiki/Mordovia_Arena"
        },
        {
            "id": 89713,
            "city_name": "Sochi",
            "city_arena": "Fisht Stadium",
            "city_founded": 1838,
            "lat": "43.4020",
            "long": "39.9557",
            "city_population": "343,334",
            "city_timezone": "GMT+3:00",
            "city_temp": "75.2° F",
            "city_dist_moscow": "1790 km",
            "club": "none",
            "capacity": "47,659",
            "stadium_built": 2013,
            "stadium_image": "https://s3.ap-south-1.amazonaws.com/tuppleapps/fifa18images/stadiums/11.jpg",
            "video_link": "https://www.youtube.com/watch?v=Ej2XC6o1n3E",
            "city_about": "https://en.wikipedia.org/wiki/Fisht_Olympic_Stadium"
        },
        {
            "id": 91541,
            "city_name": "Volgograd",
            "city_arena": "Volgograd Arena",
            "city_founded": 1589,
            "lat": "48.700001",
            "long": "44.516666",
            "city_population": "1.02 million",
            "city_timezone": "GMT+3:00",
            "city_temp": "74.4° F",
            "city_dist_moscow": "1790 km",
            "club": "FC Rotor Volgograd",
            "capacity": "45,000",
            "stadium_built": 2017,
            "stadium_image": "https://s3.ap-south-1.amazonaws.com/tuppleapps/fifa18images/stadiums/12.jpg",
            "video_link": "https://www.youtube.com/watch?v=DhqQNmROn_Q",
            "city_about": "https://en.wikipedia.org/wiki/Volgograd_Arena"
        }
    ]
}